{"resultsFound":100,"resultsStart":0,"resultsShown":10,"delivery":9137,"dineOut":4447,"nightlife":406,"chillout":0,"takeaway":4017,"all":13669,"results":[{"result":{"id":"18124357","name":"Garam Dharam","address":"M-16, Ground Floor, Outer Circle, Connaught Place, New Delhi","locality":"Connaught Place","phone":"011 33106467","city":"New Delhi","cuisines":"North Indian","distance_actual":0,"distance_friendly":"about 0 meters","rating_aggregate":3.3,"votes":201,"rating_color":"9ACD32","rating_text":"Good","user_review_count":130,"rating_editor_overall":0,"cost_for_two":1200,"has_discount":0,"has_citibank_discount":0,"has_emirates_discount":0,"latitude":28.632832,"longitude":77.219688,"has_menu":1,"has_bar":1,"is_pure_veg":0,"accepts_credit_card":1,"has_dine_in":1,"has_delivery":0,"has_coordinates":1,"image_470_310":"","image_310_310":"","image_310_150":"","image_150_150":""}},{"result":{"id":"308322","name":"Hauz Khas Social","address":"9A & 12, Hauz Khas Village, New Delhi 110013","locality":"Hauz Khas Village","phone":"011 33105944","city":"New Delhi","cuisines":"American, Cafe, Desserts, Mediterranean","distance_actual":0,"distance_friendly":"about 0 meters","rating_aggregate":4.2,"votes":5021,"rating_color":"3F7E00","rating_text":"Excellent","user_review_count":2330,"rating_editor_overall":0,"cost_for_two":1500,"has_discount":0,"has_citibank_discount":0,"has_emirates_discount":0,"latitude":28.5542555556,"longitude":77.1944416667,"has_menu":1,"has_bar":1,"is_pure_veg":0,"accepts_credit_card":1,"has_dine_in":1,"has_delivery":0,"has_coordinates":1,"image_470_310":"","image_310_310":"","image_310_150":"","image_150_150":""}},{"result":{"id":"312603","name":"Lord of the Drinks","address":"G-72, First Floor, Outer Circle, Connaught Place, New Delhi","locality":"Connaught Place","phone":"011 33106440","city":"New Delhi","cuisines":"Italian, Chinese, European, North Indian, American","distance_actual":0,"distance_friendly":"about 0 meters","rating_aggregate":3.6,"votes":273,"rating_color":"5BA829","rating_text":"Very Good","user_review_count":207,"rating_editor_overall":0,"cost_for_two":1200,"has_discount":0,"has_citibank_discount":0,"has_emirates_discount":0,"latitude":28.63337,"longitude":77.217038,"has_menu":1,"has_bar":1,"is_pure_veg":0,"accepts_credit_card":1,"has_dine_in":1,"has_delivery":0,"has_coordinates":1,"image_470_310":"","image_310_310":"","image_310_150":"","image_150_150":""}},{"result":{"id":"309790","name":"The Vault Cafe","address":"F-60, Second Floor, Connaught Place, New Delhi 110001","locality":"Connaught Place","phone":"011 33105574","city":"New Delhi","cuisines":"North Indian, Mediterranean, Asian, Continental","distance_actual":0,"distance_friendly":"about 0 meters","rating_aggregate":3.8,"votes":2075,"rating_color":"5BA829","rating_text":"Very Good","user_review_count":1123,"rating_editor_overall":0,"cost_for_two":1500,"has_discount":0,"has_citibank_discount":0,"has_emirates_discount":0,"latitude":28.631153,"longitude":77.21982,"has_menu":1,"has_bar":1,"is_pure_veg":0,"accepts_credit_card":1,"has_dine_in":1,"has_delivery":0,"has_coordinates":1,"image_470_310":"","image_310_310":"","image_310_150":"","image_150_150":""}},{"result":{"id":"311057","name":"My Bar Headquarters","address":"N-49, Second Floor, Connaught Place, New Delhi","locality":"Connaught Place","phone":"011 33105749","city":"New Delhi","cuisines":"North Indian, Mughlai, Chinese","distance_actual":0,"distance_friendly":"about 0 meters","rating_aggregate":3.6,"votes":925,"rating_color":"5BA829","rating_text":"Very Good","user_review_count":544,"rating_editor_overall":0,"cost_for_two":1000,"has_discount":0,"has_citibank_discount":0,"has_emirates_discount":0,"latitude":28.6306416667,"longitude":77.2196361111,"has_menu":1,"has_bar":1,"is_pure_veg":0,"accepts_credit_card":1,"has_dine_in":1,"has_delivery":0,"has_coordinates":1,"image_470_310":"","image_310_310":"","image_310_150":"","image_150_150":""}},{"result":{"id":"301489","name":"Barbeque Nation","address":"2nd Floor, Munshilal Building, Block N, Outer Circle, Connaught Place, New Delhi","locality":"Connaught Place","phone":"011 60600002","city":"New Delhi","cuisines":"North Indian, Chinese, Mediterranean","distance_actual":0,"distance_friendly":"about 0 meters","rating_aggregate":4.2,"votes":2974,"rating_color":"3F7E00","rating_text":"Excellent","user_review_count":901,"rating_editor_overall":0,"cost_for_two":1600,"has_discount":0,"has_citibank_discount":0,"has_emirates_discount":0,"latitude":28.6301944444,"longitude":77.2206888889,"has_menu":1,"has_bar":1,"is_pure_veg":0,"accepts_credit_card":1,"has_dine_in":1,"has_delivery":0,"has_coordinates":1,"image_470_310":"","image_310_310":"","image_310_150":"","image_150_150":""}},{"result":{"id":"1188","name":"Lodi - The Garden Restaurant","address":"Opposite Mausam Bhawan, Near Gate 1, Lodhi Road, New Delhi","locality":"Lodhi Road","phone":"011 33105163","city":"New Delhi","cuisines":"European, Lebanese, Mediterranean","distance_actual":0,"distance_friendly":"about 0 meters","rating_aggregate":4.1,"votes":2027,"rating_color":"3F7E00","rating_text":"Excellent","user_review_count":676,"rating_editor_overall":4,"cost_for_two":2200,"has_discount":0,"has_citibank_discount":1,"has_emirates_discount":0,"latitude":28.5905638889,"longitude":77.2216111111,"has_menu":1,"has_bar":1,"is_pure_veg":0,"accepts_credit_card":1,"has_dine_in":1,"has_delivery":1,"has_coordinates":1,"image_470_310":"","image_310_310":"","image_310_150":"","image_150_150":""}},{"result":{"id":"6957","name":"My Bar Lounge & Restaurant","address":"G 68, Opposite Alka Hotel, Near Metro Exit 7 & 8, Outer Circle, Connaught Place, New Delhi","locality":"Connaught Place","phone":"+91 9711018188, +91 9650500411, +91 9910121116","city":"New Delhi","cuisines":"North Indian, Mughlai, Chinese","distance_actual":0,"distance_friendly":"about 0 meters","rating_aggregate":3,"votes":3035,"rating_color":"EDD614","rating_text":"Average","user_review_count":911,"rating_editor_overall":2.5,"cost_for_two":900,"has_discount":0,"has_citibank_discount":1,"has_emirates_discount":0,"latitude":28.632716,"longitude":77.216605,"has_menu":1,"has_bar":1,"is_pure_veg":0,"accepts_credit_card":1,"has_dine_in":1,"has_delivery":0,"has_coordinates":1,"image_470_310":"","image_310_310":"","image_310_150":"","image_150_150":""}},{"result":{"id":"313149","name":"Smaaash","address":"Cyber Hub, DLF Cyber City, Gurgaon","locality":"DLF Cyber City","phone":"011 33106536","city":"Gurgaon","cuisines":"North Indian, Thai, Continental","distance_actual":0,"distance_friendly":"about 0 meters","rating_aggregate":3.9,"votes":207,"rating_color":"5BA829","rating_text":"Very Good","user_review_count":124,"rating_editor_overall":0,"cost_for_two":1500,"has_discount":0,"has_citibank_discount":0,"has_emirates_discount":0,"latitude":28.494587,"longitude":77.089595,"has_menu":1,"has_bar":1,"is_pure_veg":0,"accepts_credit_card":1,"has_dine_in":0,"has_delivery":0,"has_coordinates":1,"image_470_310":"","image_310_310":"","image_310_150":"","image_150_150":""}},{"result":{"id":"3393","name":"Parikrama - The Revolving Restaurant","address":"22, Antariksh Bhavan, Kasturba Gandhi Marg, Connaught Place, New Delhi","locality":"Connaught Place","phone":"011 33106049","city":"New Delhi","cuisines":"North Indian, Chinese, Mughlai","distance_actual":0,"distance_friendly":"about 0 meters","rating_aggregate":3.5,"votes":2813,"rating_color":"9ACD32","rating_text":"Good","user_review_count":958,"rating_editor_overall":3.5,"cost_for_two":2200,"has_discount":0,"has_citibank_discount":0,"has_emirates_discount":0,"latitude":28.6284277778,"longitude":77.2224666667,"has_menu":1,"has_bar":1,"is_pure_veg":0,"accepts_credit_card":1,"has_dine_in":1,"has_delivery":0,"has_coordinates":1,"image_470_310":"","image_310_310":"","image_310_150":"","image_150_150":""}}],"advertisements":[]}
